{"type": "FeatureCollection", "features": [{"geometry": {"type": "Point", "coordinates": [-79.5693935, 43.5841691]}, "type": "Feature", "properties": {"city": "Mississauga", "fax": "905-278-4800", "name": "Allan A. Martin Sr. Public School", "Longitude": -79.5693935, "Latitude": 43.5841691, "streetAddress": "1390 Ogden Ave.", "Full Address": "1390 Ogden Ave. L5E2H8 Mississauga", "postalCode": "L5E2H8", "phone": "905-278-6104"}}, {"geometry": {"type": "Point", "coordinates": [-79.6330656, 43.5879823]}, "type": "Feature", "properties": {"city": "Mississauga", "fax": "905-279-9455", "name": "AEC - Mississauga Campus", "Longitude": -79.6330656, "Latitude": 43.5879823, "streetAddress": "100 Elm Drive West", "Full Address": "100 Elm Drive West L5B1L9 Mississauga", "postalCode": "L5B1L9", "phone": "905-890-1010"}}, {"geometry": {"type": "Point", "coordinates": [-79.6044859, 43.6066558]}, "type": "Feature", "properties": {"city": "Mississauga", "fax": "905-279-7084", "name": "Applewood Heights Secondary School", "Longitude": -79.6044859, "Latitude": 43.6066558, "streetAddress": "945 Bloor St. E", "Full Address": "945 Bloor St. E L4Y2M8 Mississauga", "postalCode": "L4Y2M8", "phone": "905-279-6090"}}, {"geometry": {"type": "Point", "coordinates": [-79.7186851, 43.5429964]}, "type": "Feature", "properties": {"city": "Mississauga", "fax": "905-828-9821", "name": "Artesian Drive Public School", "Longitude": -79.7186851, "Latitude": 43.5429964, "streetAddress": "3325 Artesian Drive", "Full Address": "3325 Artesian Drive L5M7J8 Mississauga", "postalCode": "L5M7J8", "phone": "905-820-7786"}}, {"geometry": {"type": "Point", "coordinates": [-79.7441293, 43.5564289]}, "type": "Feature", "properties": {"city": "Mississauga", "fax": "905-363-0580", "name": "Applewood School", "Longitude": -79.7441293, "Latitude": 43.5564289, "streetAddress": "3675 Thomas Street", "Full Address": "3675 Thomas Street L5M7E6 Mississauga", "postalCode": "L5M7E6", "phone": "905-363-0579"}}, {"geometry": {"type": "Point", "coordinates": [-79.660625, 43.618694]}, "type": "Feature", "properties": {"city": "Mississauga", "fax": "905-502-1884", "name": "Barondale Public School", "Longitude": -79.660625, "Latitude": 43.618694, "streetAddress": "200 Barondale Drive", "Full Address": "200 Barondale Drive L4Z3N7 Mississauga", "postalCode": "L4Z3N7", "phone": "905-502-1880"}}, {"geometry": {"type": "Point", "coordinates": [-79.641194, 43.732442]}, "type": "Feature", "properties": {"city": "Mississauga", "fax": "905-677-4969", "name": "Brandon Gate Public School", "Longitude": -79.641194, "Latitude": 43.732442, "streetAddress": "3800 Brandon Gate", "Full Address": "3800 Brandon Gate L4T3V9 Mississauga", "postalCode": "L4T3V9", "phone": "905-677-9679"}}, {"geometry": {"type": "Point", "coordinates": [-79.587622, 43.617996]}, "type": "Feature", "properties": {"city": "Mississauga", "fax": "905-625-9503", "name": "Brian W. Fleming Public School", "Longitude": -79.587622, "Latitude": 43.617996, "streetAddress": "3255 Havenwood Drive", "Full Address": "3255 Havenwood Drive L4X2M2 Mississauga", "postalCode": "L4X2M2", "phone": "905-625-3220"}}, {"geometry": {"type": "Point", "coordinates": [-79.654655, 43.615676]}, "type": "Feature", "properties": {"city": "Mississauga", "fax": "905-755-9196", "name": "Bristol Road Middle School", "Longitude": -79.654655, "Latitude": 43.615676, "streetAddress": "210 Bristol Road East", "Full Address": "210 Bristol Road East L4Z3V5 Mississauga", "postalCode": "L4Z3V5", "phone": "905-755-9809"}}, {"geometry": {"type": "Point", "coordinates": [-79.707089, 43.6063963]}, "type": "Feature", "properties": {"city": "Mississauga", "fax": "905-814-1154", "name": "Britannia Public School", "Longitude": -79.707089, "Latitude": 43.6063963, "streetAddress": "1145 Swinbourne Drive", "Full Address": "1145 Swinbourne Drive L5V1C2 Mississauga", "postalCode": "L5V1C2", "phone": "905-814-1146"}}, {"geometry": {"type": "Point", "coordinates": [-79.6221774, 43.5136557]}, "type": "Feature", "properties": {"city": "Mississauga", "fax": "905-823-1521", "name": "Clarkson Public School", "Longitude": -79.6221774, "Latitude": 43.5136557, "streetAddress": "888 Clarkson Rd. South", "Full Address": "888 Clarkson Rd. South L5J2V3 Mississauga", "postalCode": "L5J2V3", "phone": "905-823-4470"}}, {"geometry": {"type": "Point", "coordinates": [-79.6755914, 43.5377715]}, "type": "Feature", "properties": {"city": "Mississauga", "fax": "905-820-0496", "name": "Brookmede Public School", "Longitude": -79.6755914, "Latitude": 43.5377715, "streetAddress": "2250 Council Ring Road", "Full Address": "2250 Council Ring Road L5L1B7 Mississauga", "postalCode": "L5L1B7", "phone": "905-820-9833"}}, {"geometry": {"type": "Point", "coordinates": [-79.6199802, 43.6024161]}, "type": "Feature", "properties": {"city": "Mississauga", "fax": "905-270-8581", "name": "Briarwood Public School", "Longitude": -79.6199802, "Latitude": 43.6024161, "streetAddress": "1065 Mississauga Valley Blvd.", "Full Address": "1065 Mississauga Valley Blvd. L5A2A1 Mississauga", "postalCode": "L5A2A1", "phone": "905-270-2597"}}, {"geometry": {"type": "Point", "coordinates": [-79.5976497, 43.6173775]}, "type": "Feature", "properties": {"city": "Mississauga", "fax": "905-625-4261", "name": "Burnhamthorpe Public School", "Longitude": -79.5976497, "Latitude": 43.6173775, "streetAddress": "3465 Golden Orchard Dr.", "Full Address": "3465 Golden Orchard Dr. L4Y3H7 Mississauga", "postalCode": "L4Y3H7", "phone": "905-625-0140"}}, {"geometry": {"type": "Point", "coordinates": [-79.600449, 43.577356]}, "type": "Feature", "properties": {"city": "Mississauga", "fax": "905-270-9285", "name": "Camilla Road Sr. Public School", "Longitude": -79.600449, "Latitude": 43.577356, "streetAddress": "201 Cherry Post Drive", "Full Address": "201 Cherry Post Drive L5A1J1 Mississauga", "postalCode": "L5A1J1", "phone": "905-270-0845"}}, {"geometry": {"type": "Point", "coordinates": [-79.5734441, 43.5761702]}, "type": "Feature", "properties": {"city": "Mississauga", "fax": "905-274-9370", "name": "Cawthra Park Secondary School", "Longitude": -79.5734441, "Latitude": 43.5761702, "streetAddress": "1305 Cawthra Road", "Full Address": "1305 Cawthra Road L5G4L1 Mississauga", "postalCode": "L5G4L1", "phone": "905-274-1271"}}, {"geometry": {"type": "Point", "coordinates": [-79.732617, 43.567724]}, "type": "Feature", "properties": {"city": "Mississauga", "fax": "905-812-9268", "name": "Castlebridge Public School", "Longitude": -79.732617, "Latitude": 43.567724, "streetAddress": "2801 Castlebridge Drive", "Full Address": "2801 Castlebridge Drive L5M5J9 Mississauga", "postalCode": "L5M5J9", "phone": "905-812-7906"}}, {"geometry": {"type": "Point", "coordinates": [-79.6451395, 43.5040977]}, "type": "Feature", "properties": {"city": "Mississauga", "fax": "905-822-6896", "name": "Clarkson Secondary School", "Longitude": -79.6451395, "Latitude": 43.5040977, "streetAddress": "2524 Bromsgrove Road", "Full Address": "2524 Bromsgrove Road L5J1L8 Mississauga", "postalCode": "L5J1L8", "phone": "905-822-6700"}}, {"geometry": {"type": "Point", "coordinates": [-79.625861, 43.5647517]}, "type": "Feature", "properties": {"city": "Mississauga", "fax": "905-276-1987", "name": "Cashmere Avenue Public School", "Longitude": -79.625861, "Latitude": 43.5647517, "streetAddress": "2455 Cashmere Ave.", "Full Address": "2455 Cashmere Ave. L5B2M7 Mississauga", "postalCode": "L5B2M7", "phone": "905-276-4434"}}, {"geometry": {"type": "Point", "coordinates": [-79.6021205, 43.5836806]}, "type": "Feature", "properties": {"city": "Mississauga", "fax": "905-277-4965", "name": "Clifton Public School", "Longitude": -79.6021205, "Latitude": 43.5836806, "streetAddress": "2389 Cliff Road", "Full Address": "2389 Cliff Road L5A2P1 Mississauga", "postalCode": "L5A2P1", "phone": "905-277-2611"}}, {"geometry": {"type": "Point", "coordinates": [-79.6363062, 43.7273934]}, "type": "Feature", "properties": {"city": "Mississauga", "fax": "905-677-6167", "name": "Corliss Public School", "Longitude": -79.6363062, "Latitude": 43.7273934, "streetAddress": "3730 Corliss Cres.", "Full Address": "3730 Corliss Cres. L4T2Z4 Mississauga", "postalCode": "L4T2Z4", "phone": "905-677-5350"}}, {"geometry": {"type": "Point", "coordinates": [-79.6343502, 43.5767528]}, "type": "Feature", "properties": {"city": "Mississauga", "fax": "905-755-8844", "name": "Chris Hadfield Public School", "Longitude": -79.6343502, "Latitude": 43.5767528, "streetAddress": "465 Fairview Road West", "Full Address": "465 Fairview Road West L5B3W7 Mississauga", "postalCode": "L5B3W7", "phone": "905-755-8843"}}, {"geometry": {"type": "Point", "coordinates": [-79.678461, 43.6035633]}, "type": "Feature", "properties": {"city": "Mississauga", "fax": "905-568-2649", "name": "Champlain Trail Public School", "Longitude": -79.678461, "Latitude": 43.6035633, "streetAddress": "895 Ceremonial Drive", "Full Address": "895 Ceremonial Drive L5R3B5 Mississauga", "postalCode": "L5R3B5", "phone": "905-568-1836"}}, {"geometry": {"type": "Point", "coordinates": [-79.599553, 43.578251]}, "type": "Feature", "properties": {"city": "Mississauga", "fax": "905-279-8603", "name": "Corsair Public School", "Longitude": -79.599553, "Latitude": 43.578251, "streetAddress": "2230 Corsair Road", "Full Address": "2230 Corsair Road L5A2L9 Mississauga", "postalCode": "L5A2L9", "phone": "905-279-1511"}}, {"geometry": {"type": "Point", "coordinates": [-79.6588996, 43.6069916]}, "type": "Feature", "properties": {"city": "Mississauga", "fax": "905-568-3168", "name": "Cooksville Creek Public School", "Longitude": -79.6588996, "Latitude": 43.6069916, "streetAddress": "5100 Salishan Circle", "Full Address": "5100 Salishan Circle L5R3E3 Mississauga", "postalCode": "L5R3E3", "phone": "905-568-3402"}}, {"geometry": {"type": "Point", "coordinates": [-79.7067489, 43.554308]}, "type": "Feature", "properties": {"city": "Mississauga", "fax": "905-607-0773", "name": "Credit Valley Public School", "Longitude": -79.7067489, "Latitude": 43.554308, "streetAddress": "2365 Credit Valley Road", "Full Address": "2365 Credit Valley Road L5M4E8 Mississauga", "postalCode": "L5M4E8", "phone": "905-607-0770"}}, {"geometry": {"type": "Point", "coordinates": [-79.5958452, 43.6076003]}, "type": "Feature", "properties": {"city": "Mississauga", "fax": "905-277-5306", "name": "Dixie Public School", "Longitude": -79.5958452, "Latitude": 43.6076003, "streetAddress": "1120 Flagship Dr.", "Full Address": "1120 Flagship Dr. L4Y2K1 Mississauga", "postalCode": "L4Y2K1", "phone": "905-277-9505"}}, {"geometry": {"type": "Point", "coordinates": [-79.7481023, 43.5592818]}, "type": "Feature", "properties": {"city": "Mississauga", "fax": "905-363-2337", "name": "Churchill Meadows Public School", "Longitude": -79.7481023, "Latitude": 43.5592818, "streetAddress": "3310 McDowell Drive", "Full Address": "3310 McDowell Drive L5M6R8 Mississauga", "postalCode": "L5M6R8", "phone": "905-363-2338"}}, {"geometry": {"type": "Point", "coordinates": [-79.7224573, 43.628358]}, "type": "Feature", "properties": {"city": "Mississauga", "fax": "905-362-1339", "name": "David Leeder Middle School", "Longitude": -79.7224573, "Latitude": 43.628358, "streetAddress": "6900 Gooderham Estate Blvd.", "Full Address": "6900 Gooderham Estate Blvd. L5W1B4 Mississauga", "postalCode": "L5W1B4", "phone": "905-362-1340"}}, {"geometry": {"type": "Point", "coordinates": [-79.6352468, 43.7285268]}, "type": "Feature", "properties": {"city": "Mississauga", "fax": "905-677-6185", "name": "Darcel Avenue Sr. Public School", "Longitude": -79.6352468, "Latitude": 43.7285268, "streetAddress": "7635 Darcel Ave.", "Full Address": "7635 Darcel Ave. L4T2Y2 Mississauga", "postalCode": "L4T2Y2", "phone": "905-677-3802"}}, {"geometry": {"type": "Point", "coordinates": [-79.723112, 43.640529]}, "type": "Feature", "properties": {"city": "Mississauga", "fax": "905-565-0173", "name": "Derry West Village Public School", "Longitude": -79.723112, "Latitude": 43.640529, "streetAddress": "620 Twain Avenue", "Full Address": "620 Twain Avenue L5W1M1 Mississauga", "postalCode": "L5W1M1", "phone": "905-565-5762"}}, {"geometry": {"type": "Point", "coordinates": [-79.6298058, 43.7227889]}, "type": "Feature", "properties": {"city": "Mississauga", "fax": "905-677-6895", "name": "Dunrankin Dr. Public School", "Longitude": -79.6298058, "Latitude": 43.7227889, "streetAddress": "3700 Dunrankin Dr.", "Full Address": "3700 Dunrankin Dr. L4T1V9 Mississauga", "postalCode": "L4T1V9", "phone": "905-677-2202"}}, {"geometry": {"type": "Point", "coordinates": [-79.676053, 43.579043]}, "type": "Feature", "properties": {"city": "Mississauga", "fax": "905-567-9846", "name": "Edenrose Public School", "Longitude": -79.676053, "Latitude": 43.579043, "streetAddress": "1342 Edenrose Street", "Full Address": "1342 Edenrose Street L5V1K9 Mississauga", "postalCode": "L5V1K9", "phone": "905-567-4296"}}, {"geometry": {"type": "Point", "coordinates": [-79.7278811, 43.5468693]}, "type": "Feature", "properties": {"city": "Mississauga", "fax": "905-820-1766", "name": "Erin Centre Middle School", "Longitude": -79.7278811, "Latitude": 43.5468693, "streetAddress": "3240 Erin Centre Blvd.", "Full Address": "3240 Erin Centre Blvd. L5M7T9 Mississauga", "postalCode": "L5M7T9", "phone": "905-820-5720"}}, {"geometry": {"type": "Point", "coordinates": [-79.7218872, 43.5851756]}, "type": "Feature", "properties": {"city": "Mississauga", "fax": "905-826-9931", "name": "Dolphin Sr. Public School", "Longitude": -79.7218872, "Latitude": 43.5851756, "streetAddress": "18 Brookside Dr.", "Full Address": "18 Brookside Dr. L5M1H3 Mississauga", "postalCode": "L5M1H3", "phone": "905-826-4247"}}, {"geometry": {"type": "Point", "coordinates": [-79.686511, 43.542577]}, "type": "Feature", "properties": {"city": "Mississauga", "fax": "905-820-1741", "name": "Erin Mills Middle School", "Longitude": -79.686511, "Latitude": 43.542577, "streetAddress": "3546 South Common Court", "Full Address": "3546 South Common Court L5L2B1 Mississauga", "postalCode": "L5L2B1", "phone": "905-820-9777"}}, {"geometry": {"type": "Point", "coordinates": [-79.6667322, 43.5388466]}, "type": "Feature", "properties": {"city": "Mississauga", "fax": "905-828-0975", "name": "Erindale Secondary School", "Longitude": -79.6667322, "Latitude": 43.5388466, "streetAddress": "2021 Dundas St. W.", "Full Address": "2021 Dundas St. W. L5K1R2 Mississauga", "postalCode": "L5K1R2", "phone": "905-828-7206"}}, {"geometry": {"type": "Point", "coordinates": [-79.7640118, 43.5790506]}, "type": "Feature", "properties": {"city": "Mississauga", "fax": "905-824-9987", "name": "Edenwood Middle School", "Longitude": -79.7640118, "Latitude": 43.5790506, "streetAddress": "6770 Edenwood Drive", "Full Address": "6770 Edenwood Drive L5N3B2 Mississauga", "postalCode": "L5N3B2", "phone": "905-824-1020"}}, {"geometry": {"type": "Point", "coordinates": [-79.6552911, 43.5088502]}, "type": "Feature", "properties": {"city": "Mississauga", "fax": "905-822-8852", "name": "Elmcrest Public School", "Longitude": -79.6552911, "Latitude": 43.5088502, "streetAddress": "2620 Chalkwell Close", "Full Address": "2620 Chalkwell Close L5J2B9 Mississauga", "postalCode": "L5J2B9", "phone": "905-822-1675"}}, {"geometry": {"type": "Point", "coordinates": [-79.6588823, 43.5636476]}, "type": "Feature", "properties": {"city": "Mississauga", "fax": "905-279-2643", "name": "Ellengale Public School", "Longitude": -79.6588823, "Latitude": 43.5636476, "streetAddress": "3480 Ellengale Dr.", "Full Address": "3480 Ellengale Dr. L5C1Z7 Mississauga", "postalCode": "L5C1Z7", "phone": "905-279-1555"}}, {"geometry": {"type": "Point", "coordinates": [-79.6370339, 43.5888424]}, "type": "Feature", "properties": {"city": "Mississauga", "fax": "905-277-8882", "name": "Fairview Public School", "Longitude": -79.6370339, "Latitude": 43.5888424, "streetAddress": "3590 Joan Dr.", "Full Address": "3590 Joan Dr. L5B1T8 Mississauga", "postalCode": "L5B1T8", "phone": "905-277-0281"}}, {"geometry": {"type": "Point", "coordinates": [-79.5822111, 43.5582321]}, "type": "Feature", "properties": {"city": "Mississauga", "fax": "905-278-3655", "name": "Forest Avenue Public School", "Longitude": -79.5822111, "Latitude": 43.5582321, "streetAddress": "20 Forest Ave.", "Full Address": "20 Forest Ave. L5G1K7 Mississauga", "postalCode": "L5G1K7", "phone": "905-278-2472"}}, {"geometry": {"type": "Point", "coordinates": [-79.6837168, 43.5868598]}, "type": "Feature", "properties": {"city": "Mississauga", "fax": "905-812-7472", "name": "Fallingbrook Middle School", "Longitude": -79.6837168, "Latitude": 43.5868598, "streetAddress": "5187 Fallingbrook Drive", "Full Address": "5187 Fallingbrook Drive L5V1N7 Mississauga", "postalCode": "L5V1N7", "phone": "905-812-7470"}}, {"geometry": {"type": "Point", "coordinates": [-79.6154347, 43.5716628]}, "type": "Feature", "properties": {"city": "Mississauga", "fax": "905-275-0264", "name": "Floradale Public School", "Longitude": -79.6154347, "Latitude": 43.5716628, "streetAddress": "210 Paisley Blvd. W.", "Full Address": "210 Paisley Blvd. W. L5B2A4 Mississauga", "postalCode": "L5B2A4", "phone": "905-275-1090"}}, {"geometry": {"type": "Point", "coordinates": [-79.6665526, 43.6059892]}, "type": "Feature", "properties": {"city": "Mississauga", "fax": "905-507-3881", "name": "Fairwind Sr. Public School", "Longitude": -79.6665526, "Latitude": 43.6059892, "streetAddress": "5235 Fairwind Drive", "Full Address": "5235 Fairwind Drive L5R3L2 Mississauga", "postalCode": "L5R3L2", "phone": "905-507-3877"}}, {"geometry": {"type": "Point", "coordinates": [-79.6933792, 43.5240377]}, "type": "Feature", "properties": {"city": "Mississauga", "fax": "905-607-0803", "name": "Garthwood Park Public School", "Longitude": -79.6933792, "Latitude": 43.5240377, "streetAddress": "3245 Colonial Drive", "Full Address": "3245 Colonial Drive L5L5G2 Mississauga", "postalCode": "L5L5G2", "phone": "905-607-0800"}}, {"geometry": {"type": "Point", "coordinates": [-79.5721996, 43.5865962]}, "type": "Feature", "properties": {"city": "Mississauga", "fax": "905-274-9383", "name": "Gordon Graydon Memorial Secondary School", "Longitude": -79.5721996, "Latitude": 43.5865962, "streetAddress": "1490 Ogden Avenue", "Full Address": "1490 Ogden Avenue L5E2H8 Mississauga", "postalCode": "L5E2H8", "phone": "905-274-2391"}}, {"geometry": {"type": "Point", "coordinates": [-79.610499, 43.5155668]}, "type": "Feature", "properties": {"city": "Mississauga", "fax": "905-822-9992", "name": "Green Glade Sr. Public School", "Longitude": -79.610499, "Latitude": 43.5155668, "streetAddress": "1550 Green Glade", "Full Address": "1550 Green Glade L5J1B5 Mississauga", "postalCode": "L5J1B5", "phone": "905-822-8386"}}, {"geometry": {"type": "Point", "coordinates": [-79.588989, 43.627343]}, "type": "Feature", "properties": {"city": "Mississauga", "fax": "905-625-4265", "name": "Forest Glen Public School", "Longitude": -79.588989, "Latitude": 43.627343, "streetAddress": "3400 Ponytrail Drive", "Full Address": "3400 Ponytrail Drive L4X1V5 Mississauga", "postalCode": "L4X1V5", "phone": "905-625-1462"}}, {"geometry": {"type": "Point", "coordinates": [-79.593001, 43.6257488]}, "type": "Feature", "properties": {"city": "Mississauga", "fax": "905-625-3468", "name": "Glenforest Secondary School", "Longitude": -79.593001, "Latitude": 43.6257488, "streetAddress": "3575 Fieldgate Drive", "Full Address": "3575 Fieldgate Drive L4X2J6 Mississauga", "postalCode": "L4X2J6", "phone": "905-625-7731"}}, {"geometry": {"type": "Point", "coordinates": [-79.635272, 43.558369]}, "type": "Feature", "properties": {"city": "Mississauga", "fax": "905-277-4603", "name": "Hawthorn Public School", "Longitude": -79.635272, "Latitude": 43.558369, "streetAddress": "2473 Rosemary Drive", "Full Address": "2473 Rosemary Drive L5C1X1 Mississauga", "postalCode": "L5C1X1", "phone": "905-277-4321"}}, {"geometry": {"type": "Point", "coordinates": [-79.6674527, 43.5239251]}, "type": "Feature", "properties": {"city": "Mississauga", "fax": "905-822-3232", "name": "Hillside Public School", "Longitude": -79.6674527, "Latitude": 43.5239251, "streetAddress": "2420 Homelands Dr.", "Full Address": "2420 Homelands Dr. L5K1H2 Mississauga", "postalCode": "L5K1H2", "phone": "905-822-0122"}}, {"geometry": {"type": "Point", "coordinates": [-79.709, 43.589105]}, "type": "Feature", "properties": {"city": "Mississauga", "fax": "905-858-1207", "name": "Hazel McCallion Senior Public School", "Longitude": -79.709, "Latitude": 43.589105, "streetAddress": "5750 River Grove Avenue", "Full Address": "5750 River Grove Avenue L5M4R5 Mississauga", "postalCode": "L5M4R5", "phone": "905-858-1133"}}, {"geometry": {"type": "Point", "coordinates": [-79.597491, 43.622329]}, "type": "Feature", "properties": {"city": "Mississauga", "fax": "905-625-9502", "name": "Glenhaven Sr. Public School", "Longitude": -79.597491, "Latitude": 43.622329, "streetAddress": "3570 Havenwood Dr.", "Full Address": "3570 Havenwood Dr. L4X2M9 Mississauga", "postalCode": "L4X2M9", "phone": "905-625-5250"}}, {"geometry": {"type": "Point", "coordinates": [-79.6674527, 43.5239251]}, "type": "Feature", "properties": {"city": "Mississauga", "fax": "905-822-4502", "name": "Homelands Sr. Public School", "Longitude": -79.6674527, "Latitude": 43.5239251, "streetAddress": "2420 Homelands Dr.", "Full Address": "2420 Homelands Dr. L5K1H2 Mississauga", "postalCode": "L5K1H2", "phone": "905-822-2031"}}, {"geometry": {"type": "Point", "coordinates": [-79.5981462, 43.5570774]}, "type": "Feature", "properties": {"city": "Mississauga", "fax": "905-278-1595", "name": "Kenollie Public School", "Longitude": -79.5981462, "Latitude": 43.5570774, "streetAddress": "1376 Glenwood Drive", "Full Address": "1376 Glenwood Drive L5G2X1 Mississauga", "postalCode": "L5G2X1", "phone": "905-278-8991"}}, {"geometry": {"type": "Point", "coordinates": [-79.6384835, 43.5248006]}, "type": "Feature", "properties": {"city": "Mississauga", "fax": "905-822-2955", "name": "Hillcrest Middle School", "Longitude": -79.6384835, "Latitude": 43.5248006, "streetAddress": "1530 Springwell Ave.", "Full Address": "1530 Springwell Ave. L5J3H6 Mississauga", "postalCode": "L5J3H6", "phone": "905-822-1657"}}, {"geometry": {"type": "Point", "coordinates": [-79.7161577, 43.5595781]}, "type": "Feature", "properties": {"city": "Mississauga", "fax": "905-858-1973", "name": "John Fraser Secondary School", "Longitude": -79.7161577, "Latitude": 43.5595781, "streetAddress": "2665 Erin Centre Blvd.", "Full Address": "2665 Erin Centre Blvd. L5M5H6 Mississauga", "postalCode": "L5M5H6", "phone": "905-858-5910"}}, {"geometry": {"type": "Point", "coordinates": [-79.5784177, 43.5723379]}, "type": "Feature", "properties": {"city": "Mississauga", "fax": "905-278-4347", "name": "Janet I. McDougald Public School", "Longitude": -79.5784177, "Latitude": 43.5723379, "streetAddress": "498 Hartsdale Avenue", "Full Address": "498 Hartsdale Avenue L5G2G6 Mississauga", "postalCode": "L5G2G6", "phone": "905-278-1010"}}, {"geometry": {"type": "Point", "coordinates": [-79.656984, 43.5968846]}, "type": "Feature", "properties": {"city": "Mississauga", "fax": "905-890-6530", "name": "Huntington Ridge Public School", "Longitude": -79.656984, "Latitude": 43.5968846, "streetAddress": "345 Huntington Ridge Drive", "Full Address": "345 Huntington Ridge Drive L5R1R6 Mississauga", "postalCode": "L5R1R6", "phone": "905-890-2170"}}, {"geometry": {"type": "Point", "coordinates": [-79.77809, 43.572298]}, "type": "Feature", "properties": {"city": "Mississauga", "fax": "905-785-0108", "name": "Lisgar Middle School", "Longitude": -79.77809, "Latitude": 43.572298, "streetAddress": "6755 Lisgar Drive", "Full Address": "6755 Lisgar Drive L5N6S9 Mississauga", "postalCode": "L5N6S9", "phone": "905-785-0105"}}, {"geometry": {"type": "Point", "coordinates": [-79.747383, 43.622819]}, "type": "Feature", "properties": {"city": "Mississauga", "fax": "905-564-0609", "name": "Levi Creek Public School", "Longitude": -79.747383, "Latitude": 43.622819, "streetAddress": "1525 Samuelson Circle", "Full Address": "1525 Samuelson Circle L5N7Z1 Mississauga", "postalCode": "L5N7Z1", "phone": "905-564-9879"}}, {"geometry": {"type": "Point", "coordinates": [-79.789162, 43.583117]}, "type": "Feature", "properties": {"city": "Mississauga", "fax": "905-824-7549", "name": "Kindree Public School", "Longitude": -79.789162, "Latitude": 43.583117, "streetAddress": "7370 Terragar Blvd.", "Full Address": "7370 Terragar Blvd. L5N7L8 Mississauga", "postalCode": "L5N7L8", "phone": "905-824-8371"}}, {"geometry": {"type": "Point", "coordinates": [-79.6279158, 43.5376708]}, "type": "Feature", "properties": {"city": "Mississauga", "fax": "905-278-6355", "name": "Lorne Park Public School", "Longitude": -79.6279158, "Latitude": 43.5376708, "streetAddress": "1325 Indian Rd.", "Full Address": "1325 Indian Rd. L5H1S3 Mississauga", "postalCode": "L5H1S3", "phone": "905-278-8771"}}, {"geometry": {"type": "Point", "coordinates": [-79.64772, 43.7185591]}, "type": "Feature", "properties": {"city": "Mississauga", "fax": "905-677-9867", "name": "Lancaster Public School", "Longitude": -79.64772, "Latitude": 43.7185591, "streetAddress": "7425 Netherwood Road", "Full Address": "7425 Netherwood Road L4T2N7 Mississauga", "postalCode": "L4T2N7", "phone": "905-677-5844"}}, {"geometry": {"type": "Point", "coordinates": [-79.6252267, 43.5311623]}, "type": "Feature", "properties": {"city": "Mississauga", "fax": "905-278-4011", "name": "Lorne Park Secondary School", "Longitude": -79.6252267, "Latitude": 43.5311623, "streetAddress": "1324 Lorne Park Road", "Full Address": "1324 Lorne Park Road L5H3B1 Mississauga", "postalCode": "L5H3B1", "phone": "905-278-6177"}}, {"geometry": {"type": "Point", "coordinates": [-79.6526862, 43.7157415]}, "type": "Feature", "properties": {"city": "Mississauga", "fax": "905-677-6009", "name": "Marvin Heights Public School", "Longitude": -79.6526862, "Latitude": 43.7157415, "streetAddress": "7455 Redstone Road", "Full Address": "7455 Redstone Road L4T2B3 Mississauga", "postalCode": "L4T2B3", "phone": "905-677-1526"}}, {"geometry": {"type": "Point", "coordinates": [-79.7616422, 43.5934558]}, "type": "Feature", "properties": {"city": "Mississauga", "fax": "905-826-9941", "name": "Maple Wood Public School", "Longitude": -79.7616422, "Latitude": 43.5934558, "streetAddress": "2650 Gananoque Drive", "Full Address": "2650 Gananoque Drive L5N2R2 Mississauga", "postalCode": "L5N2R2", "phone": "905-826-3902"}}, {"geometry": {"type": "Point", "coordinates": [-79.6404981, 43.7246549]}, "type": "Feature", "properties": {"city": "Mississauga", "fax": "905-677-9232", "name": "Lincoln M. Alexander Secondary School", "Longitude": -79.6404981, "Latitude": 43.7246549, "streetAddress": "3545 Morning Star Drive", "Full Address": "3545 Morning Star Drive L4T1Y3 Mississauga", "postalCode": "L4T1Y3", "phone": "905-676-1191"}}, {"geometry": {"type": "Point", "coordinates": [-79.722209, 43.56538]}, "type": "Feature", "properties": {"city": "Mississauga", "fax": "905-821-8996", "name": "Middlebury Public School", "Longitude": -79.722209, "Latitude": 43.56538, "streetAddress": "5482 Middlebury Drive", "Full Address": "5482 Middlebury Drive L5M5G7 Mississauga", "postalCode": "L5M5G7", "phone": "905-821-8585"}}, {"geometry": {"type": "Point", "coordinates": [-79.7335952, 43.5507964]}, "type": "Feature", "properties": {"city": "Mississauga", "fax": "905-812-2808", "name": "McKinnon Public School", "Longitude": -79.7335952, "Latitude": 43.5507964, "streetAddress": "3270 Tacc Drive", "Full Address": "3270 Tacc Drive L5M0H3 Mississauga", "postalCode": "L5M0H3", "phone": "905-812-2544"}}, {"geometry": {"type": "Point", "coordinates": [-79.6468903, 43.5643057]}, "type": "Feature", "properties": {"city": "Mississauga", "fax": "905-270-0163", "name": "McBride Public School", "Longitude": -79.6468903, "Latitude": 43.5643057, "streetAddress": "974 McBride Ave.", "Full Address": "974 McBride Ave. L5C1L6 Mississauga", "postalCode": "L5C1L6", "phone": "905-270-6414"}}, {"geometry": {"type": "Point", "coordinates": [-79.584735, 43.563423]}, "type": "Feature", "properties": {"city": "Mississauga", "fax": "905-278-7639", "name": "Mineola Public School", "Longitude": -79.584735, "Latitude": 43.563423, "streetAddress": "145 Windy Oaks", "Full Address": "145 Windy Oaks L5G1Z4 Mississauga", "postalCode": "L5G1Z4", "phone": "905-278-3144"}}, {"geometry": {"type": "Point", "coordinates": [-79.7558767, 43.5727397]}, "type": "Feature", "properties": {"city": "Mississauga", "fax": "905-824-9974", "name": "Miller's Grove Public School", "Longitude": -79.7558767, "Latitude": 43.5727397, "streetAddress": "6325 Miller's Grove", "Full Address": "6325 Miller's Grove L5N3K2 Mississauga", "postalCode": "L5N3K2", "phone": "905-824-3275"}}, {"geometry": {"type": "Point", "coordinates": [-79.7036568, 43.6253664]}, "type": "Feature", "properties": {"city": "Mississauga", "fax": "905-564-0052", "name": "Mississauga Secondary School", "Longitude": -79.7036568, "Latitude": 43.6253664, "streetAddress": "550 Courtneypark Drive West", "Full Address": "550 Courtneypark Drive West L5W1L9 Mississauga", "postalCode": "L5W1L9", "phone": "905-564-1033"}}, {"geometry": {"type": "Point", "coordinates": [-79.762777, 43.5783914]}, "type": "Feature", "properties": {"city": "Mississauga", "fax": "905-824-9990", "name": "Meadowvale Secondary School", "Longitude": -79.762777, "Latitude": 43.5783914, "streetAddress": "6700 Edenwood Dr.", "Full Address": "6700 Edenwood Dr. L5N3B2 Mississauga", "postalCode": "L5N3B2", "phone": "905-824-1790"}}, {"geometry": {"type": "Point", "coordinates": [-79.5933722, 43.5835888]}, "type": "Feature", "properties": {"city": "Mississauga", "fax": "905-279-2784", "name": "Munden Park Public School", "Longitude": -79.5933722, "Latitude": 43.5835888, "streetAddress": "515 Tedwyn Drive", "Full Address": "515 Tedwyn Drive L5A1J8 Mississauga", "postalCode": "L5A1J8", "phone": "905-279-9251"}}, {"geometry": {"type": "Point", "coordinates": [-79.650986, 43.614775]}, "type": "Feature", "properties": {"city": "Mississauga", "fax": "905-507-4051", "name": "Nahani Way Public School", "Longitude": -79.650986, "Latitude": 43.614775, "streetAddress": "235 Nahani Way", "Full Address": "235 Nahani Way L4Z3J6 Mississauga", "postalCode": "L4Z3J6", "phone": "905-507-4044"}}, {"geometry": {"type": "Point", "coordinates": [-79.6480317, 43.7137906]}, "type": "Feature", "properties": {"city": "Mississauga", "fax": "905-677-1320", "name": "Morning Star Middle School", "Longitude": -79.6480317, "Latitude": 43.7137906, "streetAddress": "3131 Morning Star Drive", "Full Address": "3131 Morning Star Drive L4T1X3 Mississauga", "postalCode": "L4T1X3", "phone": "905-677-0300"}}, {"geometry": {"type": "Point", "coordinates": [-79.7260618, 43.6285098]}, "type": "Feature", "properties": {"city": "Mississauga", "fax": "905-564-2875", "name": "Meadowvale Village Public School", "Longitude": -79.7260618, "Latitude": 43.6285098, "streetAddress": "890 Old Derry Rd. W.", "Full Address": "890 Old Derry Rd. W. L5W1A1 Mississauga", "postalCode": "L5W1A1", "phone": "905-564-5735"}}, {"geometry": {"type": "Point", "coordinates": [-79.6094931, 43.5252898]}, "type": "Feature", "properties": {"city": "Mississauga", "fax": "905-822-8714", "name": "Owenwood Public School", "Longitude": -79.6094931, "Latitude": 43.5252898, "streetAddress": "930 Owenwood Drive", "Full Address": "930 Owenwood Drive L5H3J2 Mississauga", "postalCode": "L5H3J2", "phone": "905-822-0311"}}, {"geometry": {"type": "Point", "coordinates": [-79.6333449, 43.5408017]}, "type": "Feature", "properties": {"city": "Mississauga", "fax": "905-274-6798", "name": "Oakridge Public School", "Longitude": -79.6333449, "Latitude": 43.5408017, "streetAddress": "2060 Stonehouse Cres.", "Full Address": "2060 Stonehouse Cres. L5H3J1 Mississauga", "postalCode": "L5H3J1", "phone": "905-274-3601"}}, {"geometry": {"type": "Point", "coordinates": [-79.727273, 43.544839]}, "type": "Feature", "properties": {"city": "Mississauga", "fax": "905-569-8735", "name": "Oscar Peterson Public School", "Longitude": -79.727273, "Latitude": 43.544839, "streetAddress": "5120 Perennial Drive", "Full Address": "5120 Perennial Drive L5M7T6 Mississauga", "postalCode": "L5M7T6", "phone": "905-569-6261"}}, {"geometry": {"type": "Point", "coordinates": [-79.7638175, 43.5619533]}, "type": "Feature", "properties": {"city": "Mississauga", "fax": "905-785-6402", "name": "Osprey Woods Public School", "Longitude": -79.7638175, "Latitude": 43.5619533, "streetAddress": "6135 Lisgar Drive", "Full Address": "6135 Lisgar Drive L5N7V2 Mississauga", "postalCode": "L5N7V2", "phone": "905-785-9687"}}, {"geometry": {"type": "Point", "coordinates": [-79.5733819, 43.5864891]}, "type": "Feature", "properties": {"city": "Mississauga", "fax": "905-278-1328", "name": "Peel Alternative School South", "Longitude": -79.5733819, "Latitude": 43.5864891, "streetAddress": "1500 Ogden Ave.", "Full Address": "1500 Ogden Ave. L5E2H8 Mississauga", "postalCode": "L5E2H8", "phone": "905-278-3396"}}, {"geometry": {"type": "Point", "coordinates": [-79.596573, 43.568726]}, "type": "Feature", "properties": {"city": "Mississauga", "fax": "905-278-8484", "name": "Queen Elizabeth Sr. Public School", "Longitude": -79.596573, "Latitude": 43.568726, "streetAddress": "60 South Service Rd.", "Full Address": "60 South Service Rd. L5G2R9 Mississauga", "postalCode": "L5G2R9", "phone": "905-278-7287"}}, {"geometry": {"type": "Point", "coordinates": [-79.7721227, 43.5808419]}, "type": "Feature", "properties": {"city": "Mississauga", "fax": "905-824-9989", "name": "Plum Tree Park Public School", "Longitude": -79.7721227, "Latitude": 43.5808419, "streetAddress": "6855 Tenth Line W.", "Full Address": "6855 Tenth Line W. L5N5R2 Mississauga", "postalCode": "L5N5R2", "phone": "905-824-0155"}}, {"geometry": {"type": "Point", "coordinates": [-79.7486652, 43.5823223]}, "type": "Feature", "properties": {"city": "Mississauga", "fax": "905-821-7138", "name": "Plowman's Park Public School", "Longitude": -79.7486652, "Latitude": 43.5823223, "streetAddress": "5940  Montevideo Road", "Full Address": "5940  Montevideo Road L5N3J5 Mississauga", "postalCode": "L5N3J5", "phone": "905-821-4973"}}, {"geometry": {"type": "Point", "coordinates": [-79.746754, 43.5858009]}, "type": "Feature", "properties": {"city": "Mississauga", "fax": "905-363-0155", "name": "Peel Alternative School West", "Longitude": -79.746754, "Latitude": 43.5858009, "streetAddress": "6325 Montevideo Rd", "Full Address": "6325 Montevideo Rd L5N4G7 Mississauga", "postalCode": "L5N4G7", "phone": "905-363-0154"}}, {"geometry": {"type": "Point", "coordinates": [-79.5873442, 43.5624045]}, "type": "Feature", "properties": {"city": "Mississauga", "fax": "905-278-8936", "name": "Port Credit Secondary School", "Longitude": -79.5873442, "Latitude": 43.5624045, "streetAddress": "70 Mineola Road E.", "Full Address": "70 Mineola Road E. L5G2E5 Mississauga", "postalCode": "L5G2E5", "phone": "905-278-3382"}}, {"geometry": {"type": "Point", "coordinates": [-79.7217812, 43.5937416]}, "type": "Feature", "properties": {"city": "Mississauga", "fax": "905-826-9958", "name": "Ray Underhill Public School", "Longitude": -79.7217812, "Latitude": 43.5937416, "streetAddress": "32 Suburban Dr.", "Full Address": "32 Suburban Dr. L5N1G6 Mississauga", "postalCode": "L5N1G6", "phone": "905-826-1742"}}, {"geometry": {"type": "Point", "coordinates": [-79.5898622, 43.5500246]}, "type": "Feature", "properties": {"city": "Mississauga", "fax": "905-274-2669", "name": "Riverside Public School", "Longitude": -79.5898622, "Latitude": 43.5500246, "streetAddress": "30 John St. N.", "Full Address": "30 John St. N. L5H2E8 Mississauga", "postalCode": "L5H2E8", "phone": "905-274-1515"}}, {"geometry": {"type": "Point", "coordinates": [-79.741071, 43.551433]}, "type": "Feature", "properties": {"city": "Mississauga", "fax": "905-814-1041", "name": "Ruth Thompson Middle School", "Longitude": -79.741071, "Latitude": 43.551433, "streetAddress": "5605 Freshwater Drive", "Full Address": "5605 Freshwater Drive L5M7M8 Mississauga", "postalCode": "L5M7M8", "phone": "905-814-1729"}}, {"geometry": {"type": "Point", "coordinates": [-79.6621412, 43.5620484]}, "type": "Feature", "properties": {"city": "Mississauga", "fax": "905-277-3374", "name": "Queenston Drive Public School", "Longitude": -79.6621412, "Latitude": 43.5620484, "streetAddress": "3520 Queenston Dr.", "Full Address": "3520 Queenston Dr. L5C2G6 Mississauga", "postalCode": "L5C2G6", "phone": "905-277-9523"}}, {"geometry": {"type": "Point", "coordinates": [-79.6844571, 43.5890786]}, "type": "Feature", "properties": {"city": "Mississauga", "fax": "905-567-5017", "name": "Rick Hansen Secondary School", "Longitude": -79.6844571, "Latitude": 43.5890786, "streetAddress": "1150 Dream Crest Road", "Full Address": "1150 Dream Crest Road L5V1N6 Mississauga", "postalCode": "L5V1N6", "phone": "905-567-4260"}}, {"geometry": {"type": "Point", "coordinates": [-79.7217812, 43.5937416]}, "type": "Feature", "properties": {"city": "Mississauga", "fax": "905-826-9958", "name": "Ray Underhill Public School", "Longitude": -79.7217812, "Latitude": 43.5937416, "streetAddress": "32 Suburban Dr.", "Full Address": "32 Suburban Dr. L5N1G6 Mississauga", "postalCode": "L5N1G6", "phone": "905-826-1742"}}, {"geometry": {"type": "Point", "coordinates": [-79.5898622, 43.5500246]}, "type": "Feature", "properties": {"city": "Mississauga", "fax": "905-274-2669", "name": "Riverside Public School", "Longitude": -79.5898622, "Latitude": 43.5500246, "streetAddress": "30 John St. N.", "Full Address": "30 John St. N. L5H2E8 Mississauga", "postalCode": "L5H2E8", "phone": "905-274-1515"}}, {"geometry": {"type": "Point", "coordinates": [-79.741071, 43.551433]}, "type": "Feature", "properties": {"city": "Mississauga", "fax": "905-814-1041", "name": "Ruth Thompson Middle School", "Longitude": -79.741071, "Latitude": 43.551433, "streetAddress": "5605 Freshwater Drive", "Full Address": "5605 Freshwater Drive L5M7M8 Mississauga", "postalCode": "L5M7M8", "phone": "905-814-1729"}}, {"geometry": {"type": "Point", "coordinates": [-79.6621412, 43.5620484]}, "type": "Feature", "properties": {"city": "Mississauga", "fax": "905-277-3374", "name": "Queenston Drive Public School", "Longitude": -79.6621412, "Latitude": 43.5620484, "streetAddress": "3520 Queenston Dr.", "Full Address": "3520 Queenston Dr. L5C2G6 Mississauga", "postalCode": "L5C2G6", "phone": "905-277-9523"}}, {"geometry": {"type": "Point", "coordinates": [-79.6844571, 43.5890786]}, "type": "Feature", "properties": {"city": "Mississauga", "fax": "905-567-5017", "name": "Rick Hansen Secondary School", "Longitude": -79.6844571, "Latitude": 43.5890786, "streetAddress": "1150 Dream Crest Road", "Full Address": "1150 Dream Crest Road L5V1N6 Mississauga", "postalCode": "L5V1N6", "phone": "905-567-4260"}}, {"geometry": {"type": "Point", "coordinates": [-79.6102118, 43.5929981]}, "type": "Feature", "properties": {"city": "Mississauga", "fax": "905-270-5169", "name": "Silver Creek Public School", "Longitude": -79.6102118, "Latitude": 43.5929981, "streetAddress": "460 Silver Creek Blvd.", "Full Address": "460 Silver Creek Blvd. L5A2B3 Mississauga", "postalCode": "L5A2B3", "phone": "905-270-4455"}}, {"geometry": {"type": "Point", "coordinates": [-79.6405173, 43.7154831]}, "type": "Feature", "properties": {"city": "Mississauga", "fax": "905-677-7730", "name": "Ridgewood Public School", "Longitude": -79.6405173, "Latitude": 43.7154831, "streetAddress": "7207 Cambrett Dr.", "Full Address": "7207 Cambrett Dr. L4T2R3 Mississauga", "postalCode": "L4T2R3", "phone": "905-677-1350"}}, {"geometry": {"type": "Point", "coordinates": [-79.6122019, 43.606656]}, "type": "Feature", "properties": {"city": "Mississauga", "fax": "905-279-3914", "name": "Silverthorn Public School", "Longitude": -79.6122019, "Latitude": 43.606656, "streetAddress": "3535 Cedar Creek Dr.", "Full Address": "3535 Cedar Creek Dr. L4Y2Y4 Mississauga", "postalCode": "L4Y2Y4", "phone": "905-279-1651"}}, {"geometry": {"type": "Point", "coordinates": [-79.7506235, 43.5788961]}, "type": "Feature", "properties": {"city": "Mississauga", "fax": "905-826-9966", "name": "Settler's Green Public School", "Longitude": -79.7506235, "Latitude": 43.5788961, "streetAddress": "5800 Montevideo Road", "Full Address": "5800 Montevideo Road L5N2S1 Mississauga", "postalCode": "L5N2S1", "phone": "905-826-4947"}}, {"geometry": {"type": "Point", "coordinates": [-79.6801966, 43.5530984]}, "type": "Feature", "properties": {"city": "Mississauga", "fax": "905-820-7031", "name": "Sawmill Valley Public School", "Longitude": -79.6801966, "Latitude": 43.5530984, "streetAddress": "3625 Sawmill Valley Dr.", "Full Address": "3625 Sawmill Valley Dr. L5L2Z5 Mississauga", "postalCode": "L5L2Z5", "phone": "905-820-2500"}}, {"geometry": {"type": "Point", "coordinates": [-79.763968, 43.5880248]}, "type": "Feature", "properties": {"city": "Mississauga", "fax": "905-826-9969", "name": "Shelter Bay Public School", "Longitude": -79.763968, "Latitude": 43.5880248, "streetAddress": "6735 Shelter Bay Rd.", "Full Address": "6735 Shelter Bay Rd. L5N2C5 Mississauga", "postalCode": "L5N2C5", "phone": "905-826-5516"}}, {"geometry": {"type": "Point", "coordinates": [-79.684822, 43.582813]}, "type": "Feature", "properties": {"city": "Mississauga", "fax": "905-812-0326", "name": "Sherwood Mills Public School", "Longitude": -79.684822, "Latitude": 43.582813, "streetAddress": "1385 Sherwood Mills Blvd", "Full Address": "1385 Sherwood Mills Blvd L5V2B8 Mississauga", "postalCode": "L5V2B8", "phone": "905-812-8265"}}, {"geometry": {"type": "Point", "coordinates": [-79.7441293, 43.5564289]}, "type": "Feature", "properties": {"city": "Mississauga", "fax": "905-363-0293", "name": "Stephen Lewis Secondary School", "Longitude": -79.7441293, "Latitude": 43.5564289, "streetAddress": "3675 Thomas Street", "Full Address": "3675 Thomas Street L5M7E6 Mississauga", "postalCode": "L5M7E6", "phone": "905-363-0289"}}, {"geometry": {"type": "Point", "coordinates": [-79.654087, 43.55756]}, "type": "Feature", "properties": {"city": "Mississauga", "fax": "905-279-8098", "name": "Springfield Public School", "Longitude": -79.654087, "Latitude": 43.55756, "streetAddress": "3251 The Credit Woodlands", "Full Address": "3251 The Credit Woodlands L5C2J7 Mississauga", "postalCode": "L5C2J7", "phone": "905-279-7950"}}, {"geometry": {"type": "Point", "coordinates": [-79.6654542, 43.5298775]}, "type": "Feature", "properties": {"city": "Mississauga", "fax": "905-822-0248", "name": "Sheridan Park Public School", "Longitude": -79.6654542, "Latitude": 43.5298775, "streetAddress": "2280 Perran Dr.", "Full Address": "2280 Perran Dr. L5K1M1 Mississauga", "postalCode": "L5K1M1", "phone": "905-822-2401"}}, {"geometry": {"type": "Point", "coordinates": [-79.763968, 43.5880248]}, "type": "Feature", "properties": {"city": "Mississauga", "fax": "905-826-9969", "name": "Shelter Bay Public School", "Longitude": -79.763968, "Latitude": 43.5880248, "streetAddress": "6735 Shelter Bay Rd.", "Full Address": "6735 Shelter Bay Rd. L5N2C5 Mississauga", "postalCode": "L5N2C5", "phone": "905-826-5516"}}, {"geometry": {"type": "Point", "coordinates": [-79.684822, 43.582813]}, "type": "Feature", "properties": {"city": "Mississauga", "fax": "905-812-0326", "name": "Sherwood Mills Public School", "Longitude": -79.684822, "Latitude": 43.582813, "streetAddress": "1385 Sherwood Mills Blvd", "Full Address": "1385 Sherwood Mills Blvd L5V2B8 Mississauga", "postalCode": "L5V2B8", "phone": "905-812-8265"}}, {"geometry": {"type": "Point", "coordinates": [-79.7441293, 43.5564289]}, "type": "Feature", "properties": {"city": "Mississauga", "fax": "905-363-0293", "name": "Stephen Lewis Secondary School", "Longitude": -79.7441293, "Latitude": 43.5564289, "streetAddress": "3675 Thomas Street", "Full Address": "3675 Thomas Street L5M7E6 Mississauga", "postalCode": "L5M7E6", "phone": "905-363-0289"}}, {"geometry": {"type": "Point", "coordinates": [-79.654087, 43.55756]}, "type": "Feature", "properties": {"city": "Mississauga", "fax": "905-279-8098", "name": "Springfield Public School", "Longitude": -79.654087, "Latitude": 43.55756, "streetAddress": "3251 The Credit Woodlands", "Full Address": "3251 The Credit Woodlands L5C2J7 Mississauga", "postalCode": "L5C2J7", "phone": "905-279-7950"}}, {"geometry": {"type": "Point", "coordinates": [-79.6654542, 43.5298775]}, "type": "Feature", "properties": {"city": "Mississauga", "fax": "905-822-0248", "name": "Sheridan Park Public School", "Longitude": -79.6654542, "Latitude": 43.5298775, "streetAddress": "2280 Perran Dr.", "Full Address": "2280 Perran Dr. L5K1M1 Mississauga", "postalCode": "L5K1M1", "phone": "905-822-2401"}}, {"geometry": {"type": "Point", "coordinates": [-79.612945, 43.5468994]}, "type": "Feature", "properties": {"city": "Mississauga", "fax": "905-278-8925", "name": "Tecumseh Public School", "Longitude": -79.612945, "Latitude": 43.5468994, "streetAddress": "1480 Chriseden Drive", "Full Address": "1480 Chriseden Drive L5H1V4 Mississauga", "postalCode": "L5H1V4", "phone": "905-278-5594"}}, {"geometry": {"type": "Point", "coordinates": [-79.6738785, 43.522227]}, "type": "Feature", "properties": {"city": "Mississauga", "fax": "905-822-2335", "name": "Thorn Lodge Public School", "Longitude": -79.6738785, "Latitude": 43.522227, "streetAddress": "2730 Thorn Lodge Drive", "Full Address": "2730 Thorn Lodge Drive L5K1L2 Mississauga", "postalCode": "L5K1L2", "phone": "905-822-5481"}}, {"geometry": {"type": "Point", "coordinates": [-79.6204868, 43.5885831]}, "type": "Feature", "properties": {"city": "Mississauga", "fax": "905-275-0921", "name": "Thornwood Public School", "Longitude": -79.6204868, "Latitude": 43.5885831, "streetAddress": "277 Mississauga Valley Blvd", "Full Address": "277 Mississauga Valley Blvd L5A1Y6 Mississauga", "postalCode": "L5A1Y6", "phone": "905-275-4077"}}, {"geometry": {"type": "Point", "coordinates": [-79.6228589, 43.5979704]}, "type": "Feature", "properties": {"city": "Mississauga", "fax": "905-275-1565", "name": "The Valleys Sr. Public School", "Longitude": -79.6228589, "Latitude": 43.5979704, "streetAddress": "1235 Mississauga Valley Blvd.", "Full Address": "1235 Mississauga Valley Blvd. L5A3R8 Mississauga", "postalCode": "L5A3R8", "phone": "905-275-5125"}}, {"geometry": {"type": "Point", "coordinates": [-79.71894, 43.57912]}, "type": "Feature", "properties": {"city": "Mississauga", "fax": "905-826-8700", "name": "Streetsville Secondary School", "Longitude": -79.71894, "Latitude": 43.57912, "streetAddress": "72 Joymar Dr.", "Full Address": "72 Joymar Dr. L5M1G3 Mississauga", "postalCode": "L5M1G3", "phone": "905-826-1195"}}, {"geometry": {"type": "Point", "coordinates": [-79.5997718, 43.6040086]}, "type": "Feature", "properties": {"city": "Mississauga", "fax": "905-277-3666", "name": "Tomken Road Middle School", "Longitude": -79.5997718, "Latitude": 43.6040086, "streetAddress": "3200 Tomken Road", "Full Address": "3200 Tomken Road L4Y2Y6 Mississauga", "postalCode": "L4Y2Y6", "phone": "905-277-0321"}}, {"geometry": {"type": "Point", "coordinates": [-79.6489784, 43.5617502]}, "type": "Feature", "properties": {"city": "Mississauga", "fax": "905-279-0215", "name": "The Woodlands Elementary School", "Longitude": -79.6489784, "Latitude": 43.5617502, "streetAddress": "3225 Erindale Station Road", "Full Address": "3225 Erindale Station Road L5C1Y5 Mississauga", "postalCode": "L5C1Y5", "phone": "905-279-0575"}}, {"geometry": {"type": "Point", "coordinates": [-79.6489784, 43.5617502]}, "type": "Feature", "properties": {"city": "Mississauga", "fax": "905-279-0215", "name": "The Woodlands Secondary School", "Longitude": -79.6489784, "Latitude": 43.5617502, "streetAddress": "3225 Erindale Station Road", "Full Address": "3225 Erindale Station Road L5C1Y5 Mississauga", "postalCode": "L5C1Y5", "phone": "905-279-0575"}}, {"geometry": {"type": "Point", "coordinates": [-79.7256699, 43.5668689]}, "type": "Feature", "properties": {"city": "Mississauga", "fax": "905-812-3716", "name": "Thomas Street Middle School", "Longitude": -79.7256699, "Latitude": 43.5668689, "streetAddress": "2640 Thomas Street", "Full Address": "2640 Thomas Street L5M5G8 Mississauga", "postalCode": "L5M5G8", "phone": "905-812-3725"}}, {"geometry": {"type": "Point", "coordinates": [-79.6203129, 43.5812287]}, "type": "Feature", "properties": {"city": "Mississauga", "fax": "905-279-6800", "name": "TL Kennedy Secondary School", "Longitude": -79.6203129, "Latitude": 43.5812287, "streetAddress": "3100 Hurontario St.", "Full Address": "3100 Hurontario St. L5B1N7 Mississauga", "postalCode": "L5B1N7", "phone": "905-279-6540"}}, {"geometry": {"type": "Point", "coordinates": [-79.768842, 43.571619]}, "type": "Feature", "properties": {"city": "Mississauga", "fax": "905-824-8731", "name": "Trelawny Public School", "Longitude": -79.768842, "Latitude": 43.571619, "streetAddress": "3420 Trelawny Circle", "Full Address": "3420 Trelawny Circle L5N6N6 Mississauga", "postalCode": "L5N6N6", "phone": "905-824-0360"}}, {"geometry": {"type": "Point", "coordinates": [-79.72538, 43.575104]}, "type": "Feature", "properties": {"city": "Mississauga", "fax": "905-826-9997", "name": "Vista Heights Public School", "Longitude": -79.72538, "Latitude": 43.575104, "streetAddress": "89 Vista Blvd.", "Full Address": "89 Vista Blvd. L5M1V8 Mississauga", "postalCode": "L5M1V8", "phone": "905-826-1581"}}]}
